$GPGGA,041728.00,1106.4830,N,10636.7584,E,1,08,0.9,10.0,M,46.9,M,,*5A
$GPGGA,041729.00,1106.4780,N,10636.7446,E,1,08,0.9,10.0,M,46.9,M,,*50
$GPGGA,041730.00,1106.4730,N,10636.7307,E,1,08,0.9,10.0,M,46.9,M,,*51
$GPGGA,041731.00,1106.4680,N,10636.7168,E,1,08,0.9,10.0,M,46.9,M,,*51
$GPGGA,041732.00,1106.4629,N,10636.7030,E,1,08,0.9,10.0,M,46.9,M,,*5D
$GPGGA,041733.00,1106.4579,N,10636.6891,E,1,08,0.9,10.0,M,46.9,M,,*58
$GPGGA,041734.00,1106.4529,N,10636.6752,E,1,08,0.9,10.0,M,46.9,M,,*5A
$GPGGA,041735.00,1106.4400,N,10636.6799,E,1,08,0.9,10.0,M,46.9,M,,*56
$GPGGA,041736.00,1106.4270,N,10636.6846,E,1,08,0.9,10.0,M,46.9,M,,*59
$GPGGA,041737.00,1106.4141,N,10636.6892,E,1,08,0.9,10.0,M,46.9,M,,*50
$GPGGA,041738.00,1106.4011,N,10636.6939,E,1,08,0.9,10.0,M,46.9,M,,*5B
$GPGGA,041739.00,1106.3882,N,10636.6986,E,1,08,0.9,10.0,M,46.9,M,,*5B
$GPGGA,041740.00,1106.3752,N,10636.7032,E,1,08,0.9,10.0,M,46.9,M,,*50
$GPGGA,041741.00,1106.3623,N,10636.7079,E,1,08,0.9,10.0,M,46.9,M,,*59
$GPGGA,041742.00,1106.3493,N,10636.7125,E,1,08,0.9,10.0,M,46.9,M,,*5B
$GPGGA,041743.00,1106.3364,N,10636.7172,E,1,08,0.9,10.0,M,46.9,M,,*57
$GPGGA,041744.00,1106.3409,N,10636.7295,E,1,08,0.9,10.0,M,46.9,M,,*56
$GPGGA,041745.00,1106.3453,N,10636.7418,E,1,08,0.9,10.0,M,46.9,M,,*5B
$GPGGA,041746.00,1106.3498,N,10636.7542,E,1,08,0.9,10.0,M,46.9,M,,*51
$GPGGA,041747.00,1106.3543,N,10636.7665,E,1,08,0.9,10.0,M,46.9,M,,*51
$GPGGA,041748.00,1106.3588,N,10636.7788,E,1,08,0.9,10.0,M,46.9,M,,*5B
$GPGGA,041749.00,1106.3633,N,10636.7911,E,1,08,0.9,10.0,M,46.9,M,,*57
$GPGGA,041750.00,1106.3677,N,10636.8034,E,1,08,0.9,10.0,M,46.9,M,,*5E
$GPGGA,041751.00,1106.3722,N,10636.8157,E,1,08,0.9,10.0,M,46.9,M,,*5A
$GPGGA,041752.00,1106.3767,N,10636.8280,E,1,08,0.9,10.0,M,46.9,M,,*51
$GPGGA,041753.00,1106.3812,N,10636.8404,E,1,08,0.9,10.0,M,46.9,M,,*57
$GPGGA,041754.00,1106.3856,N,10636.8527,E,1,08,0.9,10.0,M,46.9,M,,*50
$GPGGA,041755.00,1106.3901,N,10636.8650,E,1,08,0.9,10.0,M,46.9,M,,*51
$GPGGA,041756.00,1106.3946,N,10636.8773,E,1,08,0.9,10.0,M,46.9,M,,*51
$GPGGA,041757.00,1106.3991,N,10636.8896,E,1,08,0.9,10.0,M,46.9,M,,*5E
$GPGGA,041758.00,1106.4035,N,10636.9019,E,1,08,0.9,10.0,M,46.9,M,,*5F
$GPGGA,041759.00,1106.4080,N,10636.9142,E,1,08,0.9,10.0,M,46.9,M,,*5F
$GPGGA,041800.00,1106.4213,N,10636.9101,E,1,08,0.9,10.0,M,46.9,M,,*53
$GPGGA,041801.00,1106.4346,N,10636.9059,E,1,08,0.9,10.0,M,46.9,M,,*5F
$GPGGA,041802.00,1106.4478,N,10636.9018,E,1,08,0.9,10.0,M,46.9,M,,*53
$GPGGA,041803.00,1106.4611,N,10636.8976,E,1,08,0.9,10.0,M,46.9,M,,*5F
$GPGGA,041804.00,1106.4566,N,10636.8836,E,1,08,0.9,10.0,M,46.9,M,,*5E
$GPGGA,041805.00,1106.4521,N,10636.8695,E,1,08,0.9,10.0,M,46.9,M,,*5B
$GPGGA,041806.00,1106.4476,N,10636.8555,E,1,08,0.9,10.0,M,46.9,M,,*54
$GPGGA,041807.00,1106.4431,N,10636.8414,E,1,08,0.9,10.0,M,46.9,M,,*52
$GPGGA,041808.00,1106.4386,N,10636.8274,E,1,08,0.9,10.0,M,46.9,M,,*56
$GPGGA,041809.00,1106.4340,N,10636.8133,E,1,08,0.9,10.0,M,46.9,M,,*5D
$GPGGA,041810.00,1106.4295,N,10636.7993,E,1,08,0.9,10.0,M,46.9,M,,*51
$GPGGA,041811.00,1106.4442,N,10636.7925,E,1,08,0.9,10.0,M,46.9,M,,*51
$GPGGA,041812.00,1106.4589,N,10636.7857,E,1,08,0.9,10.0,M,46.9,M,,*50
$GPGGA,041813.00,1106.4735,N,10636.7789,E,1,08,0.9,10.0,M,46.9,M,,*58
$GPGGA,041814.00,1106.4882,N,10636.7720,E,1,08,0.9,10.0,M,46.9,M,,*5F
$GPGGA,041815.00,1106.4927,N,10636.7841,E,1,08,0.9,10.0,M,46.9,M,,*58
$GPGGA,041816.00,1106.4971,N,10636.7962,E,1,08,0.9,10.0,M,46.9,M,,*58
$GPGGA,041817.00,1106.5016,N,10636.8082,E,1,08,0.9,10.0,M,46.9,M,,*58
$GPGGA,041818.00,1106.5061,N,10636.8203,E,1,08,0.9,10.0,M,46.9,M,,*5C
$GPGGA,041819.00,1106.5106,N,10636.8323,E,1,08,0.9,10.0,M,46.9,M,,*5E
$GPGGA,041820.00,1106.5150,N,10636.8444,E,1,08,0.9,10.0,M,46.9,M,,*51
$GPGGA,041821.00,1106.5195,N,10636.8564,E,1,08,0.9,10.0,M,46.9,M,,*5A
$GPGGA,041822.00,1106.5240,N,10636.8685,E,1,08,0.9,10.0,M,46.9,M,,*5E
$GPGGA,041823.00,1106.5285,N,10636.8805,E,1,08,0.9,10.0,M,46.9,M,,*50
$GPGGA,041824.00,1106.5330,N,10636.8926,E,1,08,0.9,10.0,M,46.9,M,,*58
$GPGGA,041825.00,1106.5374,N,10636.9046,E,1,08,0.9,10.0,M,46.9,M,,*57
$GPGGA,041826.00,1106.5419,N,10636.9167,E,1,08,0.9,10.0,M,46.9,M,,*5A
$GPGGA,041827.00,1106.5464,N,10636.9287,E,1,08,0.9,10.0,M,46.9,M,,*5C
$GPGGA,041828.00,1106.5509,N,10636.9408,E,1,08,0.9,10.0,M,46.9,M,,*58
$GPGGA,041829.00,1106.5553,N,10636.9528,E,1,08,0.9,10.0,M,46.9,M,,*55
$GPGGA,041830.00,1106.5500,N,10636.9397,E,1,08,0.9,10.0,M,46.9,M,,*59
$GPGGA,041831.00,1106.5447,N,10636.9265,E,1,08,0.9,10.0,M,46.9,M,,*56
$GPGGA,041832.00,1106.5393,N,10636.9133,E,1,08,0.9,10.0,M,46.9,M,,*5B
$GPGGA,041833.00,1106.5340,N,10636.9002,E,1,08,0.9,10.0,M,46.9,M,,*57
$GPGGA,041834.00,1106.5286,N,10636.8870,E,1,08,0.9,10.0,M,46.9,M,,*57
$GPGGA,041835.00,1106.5144,N,10636.8925,E,1,08,0.9,10.0,M,46.9,M,,*5A
$GPGGA,041836.00,1106.5002,N,10636.8980,E,1,08,0.9,10.0,M,46.9,M,,*55
$GPGGA,041837.00,1106.4860,N,10636.9035,E,1,08,0.9,10.0,M,46.9,M,,*5F
$GPGGA,041838.00,1106.4718,N,10636.9090,E,1,08,0.9,10.0,M,46.9,M,,*5F
$GPGGA,041839.00,1106.4776,N,10636.9239,E,1,08,0.9,10.0,M,46.9,M,,*57
$GPGGA,041840.00,1106.4834,N,10636.9388,E,1,08,0.9,10.0,M,46.9,M,,*5B
$GPGGA,041841.00,1106.4891,N,10636.9538,E,1,08,0.9,10.0,M,46.9,M,,*58
$GPGGA,041842.00,1106.4949,N,10636.9687,E,1,08,0.9,10.0,M,46.9,M,,*58
$GPGGA,041843.00,1106.4891,N,10636.9538,E,1,08,0.9,10.0,M,46.9,M,,*5A
$GPGGA,041844.00,1106.4834,N,10636.9388,E,1,08,0.9,10.0,M,46.9,M,,*5F
$GPGGA,041845.00,1106.4776,N,10636.9239,E,1,08,0.9,10.0,M,46.9,M,,*5C
$GPGGA,041846.00,1106.4718,N,10636.9090,E,1,08,0.9,10.0,M,46.9,M,,*56
$GPGGA,041847.00,1106.4573,N,10636.9140,E,1,08,0.9,10.0,M,46.9,M,,*54
$GPGGA,041848.00,1106.4427,N,10636.9190,E,1,08,0.9,10.0,M,46.9,M,,*56
$GPGGA,041849.00,1106.4282,N,10636.9240,E,1,08,0.9,10.0,M,46.9,M,,*50
$GPGGA,041850.00,1106.4136,N,10636.9290,E,1,08,0.9,10.0,M,46.9,M,,*59
$GPGGA,041851.00,1106.4187,N,10636.9438,E,1,08,0.9,10.0,M,46.9,M,,*56
$GPGGA,041852.00,1106.4238,N,10636.9586,E,1,08,0.9,10.0,M,46.9,M,,*56
$GPGGA,041853.00,1106.4289,N,10636.9735,E,1,08,0.9,10.0,M,46.9,M,,*57
$GPGGA,041854.00,1106.4341,N,10636.9883,E,1,08,0.9,10.0,M,46.9,M,,*57
$GPGGA,041855.00,1106.4392,N,10637.0031,E,1,08,0.9,10.0,M,46.9,M,,*51
